[
  {
    "name": "Mike's Computer Repair",
    "address": "250 State Rte 1018, Kittanning, PA 16201",
    "lat": 40.879281,
    "lng": -79.380669,
    "street": "250 State Rte 1018",
    "city": "Kittanning",
    "state": "PA",
    "zip": "16201",
    "country": "United States"
  },
  {
    "name": "The Computer Magician",
    "address": "1125 North 10th Street, Lincoln, NE 68508",
    "lat": 40.8250768,
    "lng": -96.7072835,
    "street": "1125 North 10th Street",
    "city": "Lincoln",
    "state": "NE",
    "zip": "68508",
    "country": "United States"
  },
  {
    "name": "Glenville Technologies Corp.",
    "address": "47 Glenville Street, Greenwich, CT 06831",
    "lat": 41.0369987,
    "lng": -73.66836219999999,
    "street": "47 Glenville Street",
    "city": "Greenwich",
    "state": "CT",
    "zip": "06831",
    "country": "United States"
  },
  {
    "name": "Aria Technology Group, LLC",
    "address": "10880 175th Court West Suite 220 Lakeville, MN 55044",
    "lat": 44.6954629,
    "lng": -93.28463789999999,
    "street": "10880 175th Court West Suite 220",
    "city": "Lakeville",
    "state": "MN",
    "zip": "55044",
    "country": "United States"
  },
  {
    "name": "Electronics Kinnect",
    "address": "19 East High Street, Elizabethtown, PA 17022",
    "lat": 40.1518191,
    "lng": -76.60548039999999,
    "street": "19 East High Street",
    "city": "Elizabethtown",
    "state": "PA",
    "zip": "17022",
    "country": "United States"
  },
  {
    "name": "Relevant IT Inc.",
    "address": "25876 The Old Rd suite 302, Stevenson Ranch, CA 91381",
    "lat": 34.3917201,
    "lng": -118.5726512,
    "street": "25876 The Old Rd suite 302",
    "city": "Stevenson Ranch",
    "state": "CA",
    "zip": "91381",
    "country": "United States"
  },
  {
    "name": "ProTek Communications",
    "address": "1834 North Court Street, Marion, IL, 62959",
    "lat": 37.7543969,
    "lng": -88.93370829999999,
    "street": "1834 North Court Street, Marion, IL, 62959",
    "city": "",
    "state": "",
    "zip": "",
    "country": "United States"
  },
  {
    "name": "SMART IT PROS INC",
    "address": "2305 Ridge Rd #101d, Rockwall, TX 75087",
    "lat": 32.9015309,
    "lng": -96.46562089999999,
    "street": "2305 Ridge Rd #101d",
    "city": "Rockwall",
    "state": "TX",
    "zip": "75087",
    "country": "United States"
  },
  {
    "name": "The Orchard Apple Store",
    "address": "244 N Country Club Dr #202, Mesa, AZ 85201",
    "lat": 33.4199072,
    "lng": -111.840379,
    "street": "244 N Country Club Dr #202",
    "city": "Mesa",
    "state": "AZ",
    "zip": "85201",
    "country": "United States"
  },
  {
    "name": "Hall Computer Systems",
    "address": "1621 Southport Road, Spartanburg, SC 29306",
    "lat": 34.9139254,
    "lng": -81.90752309999999,
    "street": "1621 Southport Road",
    "city": "Spartanburg",
    "state": "SC",
    "zip": "29306",
    "country": "United States"
  },
  {
    "name": "JB Cyber Consulting",
    "address": "203 S 58th St, Yakima, WA 98901",
    "lat": 46.6040547,
    "lng": -120.423607,
    "street": "203 S 58th St",
    "city": "Yakima",
    "state": "WA",
    "zip": "98901",
    "country": "United States"
  },
  {
    "name": "DrTech",
    "address": "24029 SE 258th Way, Maple Valley, WA 98038",
    "lat": 47.3701362,
    "lng": -122.0212438,
    "street": "24029 SE 258th Way",
    "city": "Maple Valley",
    "state": "WA",
    "zip": "98038",
    "country": "United States"
  },
  {
    "name": "Testor Technology Services",
    "address": "10-59 Jackson Ave, Queens, NY 11101",
    "lat": 40.7427729,
    "lng": -73.952629,
    "street": "10-59 Jackson Ave",
    "city": "Queens",
    "state": "NY",
    "zip": "11101",
    "country": "United States"
  },
  {
    "name": "I Love Repairs",
    "address": "550 8th Ave, 2nd floor, New York, NY 10018",
    "lat": 40.7542705,
    "lng": -73.9915885,
    "street": "550 8th Ave, 2nd floor",
    "city": "New York",
    "state": "NY",
    "zip": "10018",
    "country": "United States"
  },
  {
    "name": "Nano Second Computers - Screen Repair, Cyber Security in Atlanta, GA",
    "address": "1201 Peachtree St NE Bldg 400, Atlanta, GA 30361",
    "lat": 33.7876407,
    "lng": -84.38315949999999,
    "street": "1201 Peachtree St NE Bldg 400",
    "city": "Atlanta",
    "state": "GA",
    "zip": "30361",
    "country": "United States"
  },
  {
    "name": "Computech of Pinellas",
    "address": "6304 41st Ave N, St. Petersburg, FL 33709",
    "lat": 27.808909,
    "lng": -82.7227492,
    "street": "6304 41st Ave N",
    "city": "St. Petersburg",
    "state": "FL",
    "zip": "33709",
    "country": "United States"
  },
  {
    "name": "Bbtechs",
    "address": "117 Underhill Ave, Roosevelt, NY 11575",
    "lat": 40.675128,
    "lng": -73.5783118,
    "street": "117 Underhill Ave",
    "city": "Roosevelt",
    "state": "NY",
    "zip": "11575",
    "country": "United States"
  },
  {
    "name": "Tampa PC Consultants",
    "address": "706 W Dr Martin Luther King Jr Blvd, Tampa, FL 33603",
    "lat": 27.9811984,
    "lng": -82.4682672,
    "street": "706 W Dr Martin Luther King Jr Blvd",
    "city": "Tampa",
    "state": "FL",
    "zip": "33603",
    "country": "United States"
  },
  {
    "name": "Absolute Computer Solutions",
    "address": "5918 E County Line Rd, Highlands Ranch, CO 80126",
    "lat": 39.5656214,
    "lng": -104.9187295,
    "street": "5918 E County Line Rd",
    "city": "Highlands Ranch",
    "state": "CO",
    "zip": "80126",
    "country": "United States"
  },
  {
    "name": "Control Alt Delete",
    "address": "719 Sumner Ave, Springfield, MA 01108",
    "lat": 42.0872987,
    "lng": -72.55047549999999,
    "street": "719 Sumner Ave",
    "city": "Springfield",
    "state": "MA",
    "zip": "01108",
    "country": "United States"
  },
  {
    "name": "Charlie's computers and emporium",
    "address": "3950 Sunset Rd #116, Las Vegas, NV 89120",
    "lat": 36.0718343,
    "lng": -115.088161,
    "street": "3950 Sunset Rd #116",
    "city": "Las Vegas",
    "state": "NV",
    "zip": "89120",
    "country": "United States"
  },
  {
    "name": "We-Revive Electronics LLC",
    "address": "12025 Shiloh Rd #200, Dallas, TX 75228",
    "lat": 32.8606041,
    "lng": -96.66711360000001,
    "street": "12025 Shiloh Rd #200",
    "city": "Dallas",
    "state": "TX",
    "zip": "75228",
    "country": "United States"
  },
  {
    "name": "AIC TRIAD Consulting",
    "address": "40 Galesi Dr #28, Wayne, NJ 07470",
    "lat": 40.898095,
    "lng": -74.2440371,
    "street": "40 Galesi Dr #28",
    "city": "Wayne",
    "state": "NJ",
    "zip": "07470",
    "country": "United States"
  },
  {
    "name": "RTGrey Consultants, Inc",
    "address": "15 Pleasant Ave e3, Harwich Port, MA 02646",
    "lat": 41.6656354,
    "lng": -70.0806844,
    "street": "15 Pleasant Ave e3",
    "city": "Harwich Port",
    "state": "MA",
    "zip": "02646",
    "country": "United States"
  },
  {
    "name": "4A Complete Computers",
    "address": "4726 NE 97th Ave, Portland, OR 97220",
    "lat": 45.5576376,
    "lng": -122.5626207,
    "street": "4726 NE 97th Ave",
    "city": "Portland",
    "state": "OR",
    "zip": "97220",
    "country": "United States"
  },
  {
    "name": "Smart Link Charlotte- IT Services",
    "address": "2101 Sardis Rd N, Charlotte, NC 28227",
    "lat": 35.1435798,
    "lng": -80.7327195,
    "street": "2101 Sardis Rd N",
    "city": "Charlotte",
    "state": "NC",
    "zip": "28227",
    "country": "United States"
  },
  {
    "name": "Computer Geek 911",
    "address": "3555 Rosecrans St # 211, San Diego, CA 92110",
    "lat": 32.7498156,
    "lng": -117.204728,
    "street": "3555 Rosecrans St # 211",
    "city": "San Diego",
    "state": "CA",
    "zip": "92110",
    "country": "United States"
  },
  {
    "name": "TraviTech LLC",
    "address": "3819 South 13th Street, Milwaukee, WI 53221",
    "lat": 42.975162,
    "lng": -87.92940109999999,
    "street": "3819 South 13th Street",
    "city": "Milwaukee",
    "state": "WI",
    "zip": "53221",
    "country": "United States"
  },
  {
    "name": "Nerds R Us LLC",
    "address": "1775 Windsor Rd Apt 291, Teaneck, NJ 07666",
    "lat": 40.9108946,
    "lng": -74.0018608,
    "street": "1775 Windsor Rd Apt 291",
    "city": "Teaneck",
    "state": "NJ",
    "zip": "07666",
    "country": "United States"
  },
  {
    "name": "Straight Repair",
    "address": "3363 E 93rd St, Cleveland, OH 44104",
    "lat": 41.4673617,
    "lng": -81.6210187,
    "street": "3363 E 93rd St",
    "city": "Cleveland",
    "state": "OH",
    "zip": "44104",
    "country": "United States"
  },
  {
    "name": "Computer Medic Repair & Service LLC",
    "address": "109 Hammock Pine Blvd, Clearwater, FL 33761",
    "lat": 28.0281279,
    "lng": -82.7356835,
    "street": "109 Hammock Pine Blvd",
    "city": "Clearwater",
    "state": "FL",
    "zip": "33761",
    "country": "United States"
  },
  {
    "name": "Silvestri computer repair",
    "address": "526 NW 118th Ave, Coral Springs, FL 33071",
    "lat": 26.2386497,
    "lng": -80.2855936,
    "street": "526 NW 118th Ave",
    "city": "Coral Springs",
    "state": "FL",
    "zip": "33071",
    "country": "United States"
  },
  {
    "name": "Azal Computer Services",
    "address": "13234 Michigan Ave, Dearborn, MI 48126",
    "lat": 42.3232509,
    "lng": -83.1730314,
    "street": "13234 Michigan Ave",
    "city": "Dearborn",
    "state": "MI",
    "zip": "48126",
    "country": "United States"
  },
  {
    "name": "Micom Systems Computer Repair",
    "address": "237 Old Hickory Blvd #101, Nashville, TN 37221",
    "lat": 36.0774614,
    "lng": -86.92053899999999,
    "street": "237 Old Hickory Blvd #101",
    "city": "Nashville",
    "state": "TN",
    "zip": "37221",
    "country": "United States"
  },
  {
    "name": "BENDIX imaging, inc.",
    "address": "1712 9th Avenue Southwest, Watertown, SD 57201",
    "lat": 44.889301,
    "lng": -97.14093679999999,
    "street": "1712 9th Avenue Southwest",
    "city": "Watertown",
    "state": "SD",
    "zip": "57201",
    "country": "United States"
  },
  {
    "name": "Computer Care Professionals",
    "address": "8080 E Gelding Dr #105, Scottsdale, AZ 85260",
    "lat": 33.6160171,
    "lng": -111.9068364,
    "street": "8080 E Gelding Dr #105",
    "city": "Scottsdale",
    "state": "AZ",
    "zip": "85260",
    "country": "United States"
  },
  {
    "name": "PC Genie",
    "address": "1508 Dessau Ridge Ln Suit 503, Austin, TX 78754",
    "lat": 30.401155,
    "lng": -97.6413754,
    "street": "1508 Dessau Ridge Ln Suit 503",
    "city": "Austin",
    "state": "TX",
    "zip": "78754",
    "country": "United States"
  },
  {
    "name": "Sam's Phone Repair",
    "address": "36601 Newark Blvd STE 70, Newark, CA 94560",
    "lat": 37.5385363,
    "lng": -122.0334038,
    "street": "36601 Newark Blvd STE 70",
    "city": "Newark",
    "state": "CA",
    "zip": "94560",
    "country": "United States"
  },
  {
    "name": "The Saveyours",
    "address": "164 S 8th St, Brooklyn, NY 11211",
    "lat": 40.7091842,
    "lng": -73.96277359999999,
    "street": "164 S 8th St",
    "city": "Brooklyn",
    "state": "NY",
    "zip": "11211",
    "country": "United States"
  },
  {
    "name": "Capitol Macintosh",
    "address": "1915 E Michigan Ave STE A, Lansing, MI 48912",
    "lat": 42.7338927,
    "lng": -84.523161,
    "street": "1915 E Michigan Ave STE A",
    "city": "Lansing",
    "state": "MI",
    "zip": "48912",
    "country": "United States"
  },
  {
    "name": "Fayetteville Tech Repair - Fayetteville",
    "address": "814 Hope Mills Rd Suite C, Fayetteville, NC 28304",
    "lat": 35.03373390000001,
    "lng": -78.9613267,
    "street": "814 Hope Mills Rd Suite C",
    "city": "Fayetteville",
    "state": "NC",
    "zip": "28304",
    "country": "United States"
  },
  {
    "name": "Fayetteville Tech Repair - Raeford",
    "address": "603 Green St, Raeford, NC 28376, United States",
    "lat": 34.9857968,
    "lng": -79.2321929,
    "street": "603 Green St",
    "city": "Raeford",
    "state": "NC",
    "zip": "28376",
    "country": "United States"
  }
]